{"type":"Topology","objects":{"interchanges":{"type":"GeometryCollection","crs":{"type":"name","properties":{"name":"urn:ogc:def:crs:OGC:1.3:CRS84"}},"geometries":[{"type":"Point","properties":{"MILEPOST":91.4,"ROUTE":"ML","NAME":"Kingston","CITY":"Kingston"},"id":"19","coordinates":[9162,4641]},{"type":"Point","properties":{"MILEPOST":101.3,"ROUTE":"ML","NAME":"Saugerties West","CITY":"Saugerties"},"id":"20W","coordinates":[9246,5283]},{"type":"Point","properties":{"MILEPOST":101.3,"ROUTE":"ML","NAME":"Saugerties East","CITY":"Saugerties"},"id":"20E","coordinates":[9252,5265]},{"type":"Point","properties":{"MILEPOST":113.9,"ROUTE":"ML","NAME":"Catskill","CITY":"Catskill"},"id":"21","coordinates":[9392,6018]},{"type":"Point","properties":{"MILEPOST":124.5,"ROUTE":"ML","NAME":"Coxsackie","CITY":"Coxsackie"},"id":"21B","coordinates":[9482,6688]},{"type":"Point","properties":{"MILEPOST":134.9,"ROUTE":"ML","NAME":"Selkirk","CITY":"So. Bethlehem"},"id":"22","coordinates":[9557,7325]},{"type":"Point","properties":{"MILEPOST":141.9,"ROUTE":"ML","NAME":"Boulevard","CITY":"Albany"},"id":"23","coordinates":[9561,7777]},{"type":"Point","properties":{"MILEPOST":147.9,"ROUTE":"ML","NAME":"Washington Ave.","CITY":"Albany"},"id":"24","coordinates":[9456,8074]},{"type":"Point","properties":{"MILEPOST":153.8,"ROUTE":"ML","NAME":"Schenectady","CITY":"Schenectady"},"id":"25","coordinates":[9313,8341]},{"type":"Point","properties":{"MILEPOST":158.8,"ROUTE":"ML","NAME":"Duanesburg","CITY":"Schenectady"},"id":"25A","coordinates":[9171,8481]},{"type":"Point","properties":{"MILEPOST":162.2,"ROUTE":"ML","NAME":"Rotterdam","CITY":"Schenectady"},"id":"26","coordinates":[9194,8719]},{"type":"Point","properties":{"MILEPOST":173.6,"ROUTE":"ML","NAME":"Amsterdam","CITY":"Amsterdam"},"id":"27","coordinates":[8888,9111]},{"type":"Point","properties":{"MILEPOST":182.2,"ROUTE":"ML","NAME":"Fultonville","CITY":"Fonda"},"id":"28","coordinates":[8630,9207]},{"type":"Point","properties":{"MILEPOST":194.1,"ROUTE":"ML","NAME":"Canajoharie","CITY":"Canajoharie"},"id":"29","coordinates":[8298,9020]},{"type":"Point","properties":{"MILEPOST":351,"ROUTE":"ML","NAME":"Victor","CITY":"Victor"},"id":"45","coordinates":[3689,9505]},{"type":"Point","properties":{"MILEPOST":362.4,"ROUTE":"ML","NAME":"Henrietta","CITY":"Henrietta"},"id":"46","coordinates":[3350,9680]},{"type":"Point","properties":{"MILEPOST":378.6,"ROUTE":"ML","NAME":"LeRoy","CITY":"LeRoy"},"id":"47","coordinates":[2846,9594]},{"type":"Point","properties":{"MILEPOST":390.1,"ROUTE":"ML","NAME":"Batavia","CITY":"Batavia"},"id":"48","coordinates":[2485,9521]},{"type":"Point","properties":{"MILEPOST":401.6,"ROUTE":"ML","NAME":"Pembroke","CITY":"East Pembroke"},"id":"48A","coordinates":[2135,9463]},{"type":"Point","properties":{"MILEPOST":417.3,"ROUTE":"ML","NAME":"Depew","CITY":"Williamsville"},"id":"49","coordinates":[1664,9209]},{"type":"Point","properties":{"MILEPOST":419.7,"ROUTE":"ML","NAME":"Williamsville","CITY":"Williamsville"},"id":"50","coordinates":[1584,9230]},{"type":"Point","properties":{"MILEPOST":430.5,"ROUTE":"ML","NAME":"Lackawanna","CITY":"Buffalo"},"id":"55","coordinates":[1515,8600]},{"type":"Point","properties":{"MILEPOST":432.5,"ROUTE":"ML","NAME":"Blasdell","CITY":"Buffalo"},"id":"56","coordinates":[1474,8498]},{"type":"Point","properties":{"MILEPOST":444.9,"ROUTE":"ML","NAME":"Eden-Angola","CITY":"Eden"},"id":"57A","coordinates":[1252,7886]},{"type":"Point","properties":{"MILEPOST":436.2,"ROUTE":"ML","NAME":"Hamburg","CITY":"Hamburg"},"id":"57","coordinates":[1434,8285]},{"type":"Point","properties":{"MILEPOST":455.5,"ROUTE":"ML","NAME":"Silver Creek","CITY":"Silver Creek"},"id":"58","coordinates":[1000,7443]},{"type":"Point","properties":{"MILEPOST":467.7,"ROUTE":"ML","NAME":"Dunkirk","CITY":"Dunkirk"},"id":"59","coordinates":[691,6984]},{"type":"Point","properties":{"MILEPOST":485,"ROUTE":"ML","NAME":"Westfield","CITY":"Westfield"},"id":"60","coordinates":[240,6435]},{"type":"Point","properties":{"MILEPOST":494.5,"ROUTE":"ML","NAME":"Ripley","CITY":"Ripley"},"id":"61","coordinates":[0,6101]},{"type":"Point","properties":{"MILEPOST":914.3,"ROUTE":"N","NAME":"Tonawanda","CITY":"Buffalo"},"id":"86","coordinates":[1298,9424]},{"type":"Point","properties":{"MILEPOST":920.2,"ROUTE":"N","NAME":"Niagara","CITY":"Buffalo"},"id":"89","coordinates":[1200,9729]},{"type":"Point","properties":{"MILEPOST":210.6,"ROUTE":"ML","NAME":"Little Falls","CITY":"Little Falls"},"id":"29A","coordinates":[7893,9535]},{"type":"Point","properties":{"MILEPOST":219.7,"ROUTE":"ML","NAME":"Herkimer","CITY":"Herkimer"},"id":"30","coordinates":[7613,9522]},{"type":"Point","properties":{"MILEPOST":232.9,"ROUTE":"ML","NAME":"Utica","CITY":"Utica"},"id":"31","coordinates":[7264,9958]},{"type":"Point","properties":{"MILEPOST":246.2,"ROUTE":"ML","NAME":"Westmoreland","CITY":"Clinton"},"id":"32","coordinates":[6956,9999]},{"type":"Point","properties":{"MILEPOST":252.7,"ROUTE":"ML","NAME":"Verona","CITY":"Oneida"},"id":"33","coordinates":[6660,9998]},{"type":"Point","properties":{"MILEPOST":261.5,"ROUTE":"ML","NAME":"Canastota","CITY":"Canastota"},"id":"34","coordinates":[6401,9855]},{"type":"Point","properties":{"MILEPOST":276.5,"ROUTE":"ML","NAME":"Collamer","CITY":"Syracuse"},"id":"34A","coordinates":[5920,9897]},{"type":"Point","properties":{"MILEPOST":278.9,"ROUTE":"ML","NAME":"Thompson Road","CITY":"Syracuse"},"id":"35","coordinates":[5853,9859]},{"type":"Point","properties":{"MILEPOST":282.9,"ROUTE":"ML","NAME":"Mattydale","CITY":"Syracuse"},"id":"36","coordinates":[5733,9884]},{"type":"Point","properties":{"MILEPOST":283.8,"ROUTE":"ML","NAME":"Electronics Pkwy","CITY":"Syracuse"},"id":"37","coordinates":[5700,9910]},{"type":"Point","properties":{"MILEPOST":286,"ROUTE":"ML","NAME":"Liverpool","CITY":"Liverpool"},"id":"38","coordinates":[5653,9969]},{"type":"Point","properties":{"MILEPOST":289.6,"ROUTE":"ML","NAME":"State Fair","CITY":"Syracuse"},"id":"39","coordinates":[5534,9948]},{"type":"Point","properties":{"MILEPOST":304.2,"ROUTE":"ML","NAME":"Weedsport","CITY":"Weedsport"},"id":"40","coordinates":[5098,9722]},{"type":"Point","properties":{"MILEPOST":320.4,"ROUTE":"ML","NAME":"Waterloo","CITY":"Waterloo"},"id":"41","coordinates":[4635,9292]},{"type":"Point","properties":{"MILEPOST":327.1,"ROUTE":"ML","NAME":"Geneva","CITY":"Geneva"},"id":"42","coordinates":[4426,9232]},{"type":"Point","properties":{"MILEPOST":340.2,"ROUTE":"ML","NAME":"Manchester","CITY":"Shortsville"},"id":"43","coordinates":[4025,9340]},{"type":"Point","properties":{"MILEPOST":347.1,"ROUTE":"ML","NAME":"Canandaigua","CITY":"Victor"},"id":"44","coordinates":[3807,9408]},{"type":"Point","properties":{"MILEPOST":5.5,"ROUTE":"ML","NAME":"Yonkers","CITY":"Yonkers"},"id":"06","coordinates":[9433,223]},{"type":"Point","properties":{"MILEPOST":13.1,"ROUTE":"ML","NAME":"Tarrytown (TZ Bridge)","CITY":"Tarrytown"},"id":"09","coordinates":[9422,630]},{"type":"Point","properties":{"MILEPOST":24.3,"ROUTE":"ML","NAME":"Spring Valley","CITY":"Spring Valley"},"id":"14","coordinates":[9118,782]},{"type":"Point","properties":{"MILEPOST":45,"ROUTE":"ML","NAME":"Woodbury","CITY":"Harriman"},"id":"15","coordinates":[9005,1744]},{"type":"Point","properties":{"MILEPOST":45.2,"ROUTE":"ML","NAME":"Harriman","CITY":"Harriman"},"id":"08","coordinates":[9000,1764]},{"type":"Point","properties":{"MILEPOST":60.1,"ROUTE":"ML","NAME":"Newburgh","CITY":"Newburgh"},"id":"17","coordinates":[9093,2662]},{"type":"Point","properties":{"MILEPOST":76,"ROUTE":"ML","NAME":"New Paltz","CITY":"New Paltz"},"id":"18","coordinates":[9106,3697]},{"type":"Point","properties":{"MILEPOST":606.9,"ROUTE":"NE","NAME":"New Rochelle","CITY":"New Rochelle"},"id":"98","coordinates":[9574,0]},{"type":"Point","properties":{"MILEPOST":817.8,"ROUTE":"B","NAME":"Canaan","CITY":"Chatham"},"id":"B3","coordinates":[9999,6707]},{"type":"Point","properties":{"MILEPOST":815.9,"ROUTE":"B","NAME":"Taconic","CITY":"Chatham"},"id":"B2","coordinates":[9929,6793]},{"type":"Point","properties":{"MILEPOST":806.6,"ROUTE":"B","NAME":"Post Road","CITY":"Castleton"},"id":"B1","coordinates":[9732,7103]},{"type":"Point","properties":{"MILEPOST":45.2,"ROUTE":"ML","NAME":"Harriman","CITY":"Harriman"},"id":"16H","coordinates":[9000,1764]},{"type":"Point","properties":{"MILEPOST":45,"ROUTE":"ML","NAME":"Harriman","CITY":"Harriman"},"id":"16W","coordinates":[9006,1743]},{"type":"Point","properties":{"MILEPOST":60.1,"ROUTE":"ML","NAME":"Newburgh","CITY":"Newburgh"},"id":"17","coordinates":[9091,2666]},{"type":"Point","properties":{"MILEPOST":60.1,"ROUTE":"ML","NAME":"Newburgh","CITY":"Newburgh"},"id":"17","coordinates":[9093,2654]}]}},"arcs":[],"transform":{"scale":[0.0006234221302130204,0.00021942000100009956],"translate":[-79.73871974,40.92689844]}}